[{"id":1,"name":"Anslow Place Reserve Playground","description":"","address":"Tasman 7025, New Zealand","latitude":"-41.40166890347686","longitude":"173.05177035958491","tags":"Playground","rating":"3","userID":"1","addedon":"2012-09-01"},{"id":2,"name":"Arbor Lea Reserve Playground","description":"","address":"Tasman 7020, New Zealand","latitude":"-41.334760760912594","longitude":"173.19431333196431","tags":"Playground","rating":"3","userID":"1","addedon":"2012-09-01"},{"id":3,"name":"Brightwater Recreation Reserve Playground","description":"","address":"Tasman 7022, New Zealand","latitude":"-41.375025370869913","longitude":"173.10826515200372","tags":"Playground","rating":"3","userID":"1","addedon":"2012-09-01"},{"id":4,"name":"Brooklyn Domain Playground","description":"","address":"Brooklyn, New Zealand","latitude":"-41.096991696061643","longitude":"172.95840023800938","tags":"Playground","rating":"3","userID":"1","addedon":"2012-09-01"},{"id":5,"name":"Burbush Park Playground","description":"","address":"Tasman 7020, New Zealand","latitude":"-41.338175856215841","longitude":"173.19106147355095","tags":"Playground","rating":"3","userID":"1","addedon":"2012-09-01"},{"id":6,"name":"Cambridge Street Playground","description":"","address":"Tasman 7020, New Zealand","latitude":"-41.339404834309519","longitude":"173.18299390031112","tags":"Playground","rating":"3","userID":"1","addedon":"2012-09-01"},{"id":7,"name":"Chelsea Ave Reserve Playground","description":"","address":"Tasman 7020, New Zealand","latitude":"-41.348765530653409","longitude":"173.1811263677522","tags":"Playground","rating":"3","userID":"1","addedon":"2012-09-01"},{"id":8,"name":"Coach Place Reserve Playground","description":"","address":"Tasman 7022, New Zealand","latitude":"-41.372875246874578","longitude":"173.10221201500559","tags":"Playground","rating":"3","userID":"1","addedon":"2012-09-01"},{"id":9,"name":"Collins Road Reserve Playground","description":"","address":"Tasman 7020, New Zealand","latitude":"-41.347203062071472","longitude":"173.1668190531982","tags":"Playground","rating":"3","userID":"1","addedon":"2012-09-01"},{"id":10,"name":"Decks Reserve Playground","description":"","address":"Tasman 7120, New Zealand","latitude":"-41.110694679200492","longitude":"173.01272646596388","tags":"Playground","rating":"3","userID":"1","addedon":"2012-09-01"},{"id":11,"name":"Easby Park Playground","description":"","address":"Tasman 7020, New Zealand","latitude":"-41.348294300269728","longitude":"173.20214832187057","tags":"Playground","rating":"3","userID":"1","addedon":"2012-09-01"},{"id":12,"name":"Eginton Park Playground","description":"","address":"Tasman 7120, New Zealand","latitude":"-41.108666791001554","longitude":"173.0191490806601","tags":"Playground","rating":"3","userID":"1","addedon":"2012-09-01"},{"id":13,"name":"Faulkner Bush Reserve Playground","description":"","address":"Tasman 7025, New Zealand","latitude":"-41.407512179163696","longitude":"173.04194789881635","tags":"Playground","rating":"3","userID":"1","addedon":"2012-09-01"},{"id":14,"name":"Feary Crescent Reserve Playground","description":"","address":"Tasman 7110, New Zealand","latitude":"-40.849219837027434","longitude":"172.80485176709018","tags":"Playground","rating":"3","userID":"1","addedon":"2012-09-01"},{"id":15,"name":"Harwood Place Reserve Playground","description":"","address":"Upper Takaka, New Zealand","latitude":"-41.02894818787604","longitude":"172.82135456060715","tags":"Playground","rating":"3","userID":"1","addedon":"2012-09-01"},{"id":16,"name":"Hope Hall and Recreation Reserve Playground","description":"","address":"Tasman 7020, New Zealand","latitude":"-41.352587590143997","longitude":"173.15462592583262","tags":"Playground","rating":"3","userID":"1","addedon":"2012-09-01"},{"id":17,"name":"Jean Berriman Park Playground","description":"","address":"Tasman 7020, New Zealand","latitude":"-41.335099529310497","longitude":"173.18912937509702","tags":"Playground","rating":"3","userID":"1","addedon":"2012-09-01"},{"id":18,"name":"Shuttleworth Reserve Playground","description":"","address":"Tasman 7025, New Zealand","latitude":"-41.401853098796934","longitude":"173.04821347561514","tags":"Playground","rating":"3","userID":"1","addedon":"2012-09-01"},{"id":19,"name":"Riwaka Memorial Reserve Playground","description":"","address":"Riwaka, New Zealand","latitude":"-41.075740783507626","longitude":"172.9971897757778","tags":"Playground","rating":"3","userID":"1","addedon":"2012-09-01"},{"id":20,"name":"Murchison Playground","description":"","address":"4 Hampden St, Murchison 7007, New Zealand","latitude":"-41.80190968118707","longitude":"172.32606894493935","tags":"Playground","rating":"3","userID":"1","addedon":"2012-09-01"},{"id":21,"name":"Norm Large Park Playground","description":"","address":"undefined","latitude":"-41.344116013356093","longitude":"173.17679379964267","tags":"Playground","rating":"3","userID":"1","addedon":"2012-09-01"},{"id":22,"name":"Norman Andrews Place Reserve Playground","description":"","address":"undefined","latitude":"-41.345052628312359","longitude":"173.16548610383066","tags":"Playground","rating":"3","userID":"1","addedon":"2012-09-01"},{"id":23,"name":"North Street Reserve Playground","description":"","address":"undefined","latitude":"-41.13441041277698","longitude":"173.02309775186873","tags":"Playground","rating":"3","userID":"1","addedon":"2012-09-01"},{"id":24,"name":"Onekaka Hall Recreation Reserve Playground","description":"","address":"undefined","latitude":"-40.762854998290102","longitude":"172.70635241752288","tags":"Playground","rating":"3","userID":"1","addedon":"2012-09-01"},{"id":25,"name":"Park Drive Reserve Playground","description":"","address":"undefined","latitude":"-41.34361470425344","longitude":"173.20783176591999","tags":"Playground","rating":"3","userID":"1","addedon":"2012-09-01"},{"id":26,"name":"Pohara Beach Camp Playground","description":"","address":"790 Abel Tasman Dr, Pohara 7183, New Zealand","latitude":"-40.833573764788177","longitude":"172.88272934136086","tags":"Playground","rating":"3","userID":"1","addedon":"2012-09-01"},{"id":27,"name":"Takaka Memorial Reserve Playground","description":"","address":"1 Reilly St, Takaka 7110, New Zealand","latitude":"-40.858089276559966","longitude":"172.80563447677886","tags":"Playground","rating":"3","userID":"1","addedon":"2012-09-01"},{"id":28,"name":"Reservoir Creek Walkway Rec Reserve Playground","description":"","address":"10-12 Welsh Pl, Richmond 7020, New Zealand","latitude":"-41.341053328498234","longitude":"173.20100328967015","tags":"Playground","rating":"3","userID":"1","addedon":"2012-09-01"},{"id":29,"name":"Riverview Motor Camp Playground","description":"","address":"19 Riverview Rd, Murchison 7077, New Zealand","latitude":"-41.795662988871513","longitude":"172.34125454341984","tags":"Playground","rating":"3","userID":"1","addedon":"2012-09-01"},{"id":30,"name":"Rockville School Reserve Playground","description":"","address":"934 Collingwood-Bainham Main Rd, Rockville 7073, New Zealand","latitude":"-40.729153338877417","longitude":"172.61901656391717","tags":"Playground","rating":"3","userID":"1","addedon":"2012-09-01"},{"id":31,"name":"Tilson Crescent Reserve Playground","description":"","address":"9 Tui Close, Motueka 7120, New Zealand","latitude":"-41.120877213748066","longitude":"173.01327564607482","tags":"Playground","rating":"3","userID":"1","addedon":"2012-09-01"},{"id":32,"name":"Starveall Street Reserve Playground","description":"","address":"5 Ben Nevis Crescent, Brightwater 7022, New Zealand","latitude":"-41.378104939190116","longitude":"173.10834742771956","tags":"Playground","rating":"3","userID":"1","addedon":"2012-09-01"},{"id":33,"name":"St James Avenue Reserve Playground","description":"","address":"10 Aratia Way, Richmond 7020, New Zealand","latitude":"-41.347626063787956","longitude":"173.17383523475436","tags":"Playground","rating":"3","userID":"1","addedon":"2012-09-01"},{"id":34,"name":"Tapawera Playground","description":"","address":"102 Main Road Tapawera, Tapawera 7096, New Zealand","latitude":"-41.388554959903189","longitude":"172.82473829382224","tags":"Playground","rating":"3","userID":"1","addedon":"2012-09-01"},{"id":35,"name":"Tapawera Playground","description":"","address":"5 Kowhai St, Tapawera 7096, New Zealand","latitude":"-41.388728825690137","longitude":"172.82552943725852","tags":"Playground","rating":"3","userID":"1","addedon":"2012-09-01"},{"id":36,"name":"Tasman Memorial Recreation Reserve Playground","description":"","address":"11 Rush Ln, Tasman 7173, New Zealand","latitude":"-41.186303888192903","longitude":"173.04768723047451","tags":"Playground","rating":"3","userID":"1","addedon":"2012-09-01"},{"id":37,"name":"Tata Heights Reserve Playground","description":"","address":"16A Tata Heights, Tata Beach 7183, New Zealand","latitude":"-40.810958163372327","longitude":"172.91816673003729","tags":"Playground","rating":"3","userID":"1","addedon":"2012-09-01"},{"id":38,"name":"Tawa Place Playground","description":"","address":"9 Tawa Pl, Tapawera 7096, New Zealand","latitude":"-41.388765131150599","longitude":"172.82709012547815","tags":"Playground","rating":"3","userID":"1","addedon":"2012-09-01"},{"id":39,"name":"Ted Reed Reserve Playground","description":"","address":"70 School Rd, Riwaka 7198, New Zealand","latitude":"-41.076267738926177","longitude":"173.00563220222216","tags":"Playground","rating":"3","userID":"1","addedon":"2012-09-01"},{"id":40,"name":"Thorps Bush Playground","description":"","address":"23 Hickmott Pl, Motueka 7120, New Zealand","latitude":"-41.115153246652355","longitude":"173.01272523660785","tags":"Playground","rating":"3","userID":"1","addedon":"2012-09-01"},{"id":41,"name":"Richards Recreation Reserve Playground","description":"","address":"100 Wildman Rd, Motueka 7120, New Zealand","latitude":"-41.139144084327135","longitude":"172.9995701870582","tags":"Playground","rating":"3","userID":"1","addedon":"2012-09-01"},{"id":42,"name":"Winston Park Playground","description":"","address":"14 Churchill Ave, Richmond 7020, New Zealand","latitude":"-41.347794514495909","longitude":"173.19876116992933","tags":"Playground","rating":"3","userID":"1","addedon":"2012-09-01"},{"id":43,"name":"Mapua Recreation Reserve Playground","description":"","address":"74 Aranui Rd, Mapua 7005, New Zealand","latitude":"-41.25203836190196","longitude":"173.09474064993515","tags":"Playground","rating":"3","userID":"1","addedon":"2012-09-01"},{"id":44,"name":"McKee Memorial Rec Reserve Playground","description":"","address":"1420 The Coastal Hwy, Ruby Bay 7173, New Zealand","latitude":"-41.215279960114813","longitude":"173.08380753051827","tags":"Playground","rating":"3","userID":"1","addedon":"2012-09-01"},{"id":45,"name":"Memorial Park Playground","description":"","address":"104 High St, Motueka 7120, New Zealand","latitude":"-41.109209276793891","longitude":"173.0095721936683","tags":"Playground","rating":"3","userID":"1","addedon":"2012-09-01"},{"id":46,"name":"Owen River Recreational Reserve Playground","description":"","address":"Kawatiri-Murchison Hwy, Owen River 7077, New Zealand","latitude":"-41.68652787762683","longitude":"172.4514352747274","tags":"Playground","rating":"3","userID":"1","addedon":"2012-09-01"},{"id":47,"name":"Fire Station Playground","description":"","address":"2 Tasman St, Collingwood 7073, New Zealand","latitude":"-40.677119888648434","longitude":"172.68273527940602","tags":"Playground","rating":"3","userID":"1","addedon":"2012-09-01"},{"id":48,"name":"Upper Moutere Recreation Reserve Playground","description":"","address":"1539 Moutere Hwy, Upper Moutere 7175, New Zealand","latitude":"-41.256484552780783","longitude":"173.01021878720815","tags":"Playground","rating":"3","userID":"1","addedon":"2012-09-01"},{"id":49,"name":"Motueka Public Library","description":"","address":"10 Pah St, Motueka 7120, New Zealand","latitude":"-41.109857682942852","longitude":"173.00960398442126","tags":"Library","rating":"3","userID":"1","addedon":"2012-09-01"},{"id":50,"name":"Takaka Memorial Library","description":"","address":"3 Junction St, Takaka 7110, New Zealand","latitude":"-40.858877916530645","longitude":"172.80506130798665","tags":"Library","rating":"3","userID":"1","addedon":"2012-09-01"},{"id":51,"name":"Richmond District Library","description":"","address":"280 Queen St, Richmond 7020, New Zealand","latitude":"-41.338100196482195","longitude":"173.18390501100907","tags":"Library","rating":"3","userID":"1","addedon":"2012-09-01"},{"id":52,"name":"Murchison Public Library","description":"","address":"92 Fairfax St, Murchison 7007, New Zealand","latitude":"-41.802920163668105","longitude":"172.3251821820036","tags":"Library","rating":"3","userID":"1","addedon":"2012-09-01"},{"id":53,"name":"Motueka District Museum","description":"","address":"136 High St, Motueka 7120, New Zealand","latitude":"-41.110762578111093","longitude":"173.01086383240789","tags":"Museum","rating":"3","userID":"1","addedon":"2012-09-01"},{"id":54,"name":"Golden Bay Museum and Gallery","description":"","address":"73 Commercial St, Takaka 7110, New Zealand","latitude":"-40.857774632157188","longitude":"172.80614531003593","tags":"Museum","rating":"3","userID":"1","addedon":"2012-09-01"},{"id":55,"name":"Collingwood Museum","description":"","address":"2 Tasman St, Collingwood 7073, New Zealand","latitude":"-40.676993755063997","longitude":"172.68262458173481","tags":"Museum","rating":"3","userID":"1","addedon":"2012-09-01"},{"id":56,"name":"Murchison District Museum","description":"","address":"60 Fairfax St, Murchison 7007, New Zealand","latitude":"-41.801561225911193","longitude":"172.32521533919007","tags":"Museum","rating":"3","userID":"1","addedon":"2012-09-01"},{"id":57,"name":"Waller Street Public Toilet, Murchison","description":"","address":"78-82 State Hwy, Murchison 7007, New Zealand","latitude":"-41.800260751515488","longitude":"172.33108978728364","tags":"Public Toilet","rating":"3","userID":"1","addedon":"2012-09-01"},{"id":58,"name":"I-SITE Murchison Visitor Centre","description":"","address":"47 Waller St, Murchison 7007, New Zealand","latitude":"-41.799950471450579","longitude":"172.32615423050376","tags":"Visitor Centre","rating":"3","userID":"1","addedon":"2012-09-01"},{"id":59,"name":"I-SITE Golden Bay Visitor Centre","description":"","address":"15 Willow St, Takaka 7110, New Zealand","latitude":"-40.862108249880826","longitude":"172.80644442123645","tags":"Visitor Centre","rating":"3","userID":"1","addedon":"2012-09-01"},{"id":60,"name":"I-SITE Motueka Visitor Centre","description":"","address":"24 Wallace St, Motueka 7120, New Zealand","latitude":"-41.111701264540358","longitude":"173.01228789582348","tags":"Visitor Centre","rating":"3","userID":"1","addedon":"2012-09-01"},{"id":61,"name":"Wallace Street Public Toilet, Motueka","description":"","address":"24 Wallace St, Motueka 7120, New Zealand","latitude":"-41.111760664706267","longitude":"173.01242144777487","tags":"Public Toilet","rating":"3","userID":"1","addedon":"2012-09-01"},{"id":62,"name":"Staples Street Public Toilet, Motueka","description":"","address":"163 Staples St, Motueka 7120, New Zealand","latitude":"-41.100327058910985","longitude":"173.02950850685681","tags":"Public Toilet","rating":"3","userID":"1","addedon":"2012-09-01"},{"id":63,"name":"Pah Street Public Toilet, Motueka","description":"","address":"6 Pah St, Motueka 7120, New Zealand","latitude":"-41.109753989070285","longitude":"173.01008098942847","tags":"Public Toilet","rating":"3","userID":"1","addedon":"2012-09-01"},{"id":64,"name":"Thorpe Bush Public Toilet, Motueka","description":"","address":"1 Woodland Ave, Motueka 7120, New Zealand","latitude":"-41.115423113170216","longitude":"173.01194747232333","tags":"Public Toilet","rating":"3","userID":"1","addedon":"2012-09-01"},{"id":65,"name":"Everett Street Public Toilet, Motueka","description":"","address":"10 Everett St, Motueka 7120, New Zealand","latitude":"-41.135245560423513","longitude":"173.02341507203289","tags":"Public Toilet","rating":"3","userID":"1","addedon":"2012-09-01"},{"id":66,"name":"Memorial Reserve Public Toilet, Takaka","description":"","address":"63 Commercial St, Takaka 7110, New Zealand","latitude":"-40.858256630236014","longitude":"172.8059914278036","tags":"Public Toilet","rating":"3","userID":"1","addedon":"2012-09-01"},{"id":67,"name":"Jubilee Park Public Toilet, Richmond","description":"","address":"20 Gladstone Rd, Richmond 7020, New Zealand","latitude":"-41.338636886152237","longitude":"173.17830756708389","tags":"Public Toilet","rating":"3","userID":"1","addedon":"2012-09-01"},{"id":68,"name":"I-SITE Richmond Visitor Centre","description":"","address":"30 Gladstone Rd, Richmond 7020, New Zealand","latitude":"-41.339203372717854","longitude":"173.17735650059126","tags":"Visitor Centre","rating":"3","userID":"1","addedon":"2012-09-01"},{"id":69,"name":"Richmond Mall Public Toilet","description":"","address":"226 Queen St, Richmond 7020, New Zealand","latitude":"-41.339370082901027","longitude":"173.18634420154825","tags":"Public Toilet","rating":"3","userID":"1","addedon":"2012-09-01"},{"id":70,"name":"Washbourn Gardens Public Toilet, Richmond","description":"","address":"15 Oxford St, Richmond 7020, New Zealand","latitude":"-41.343242323694199","longitude":"173.18660098311588","tags":"Public Toilet","rating":"3","userID":"1","addedon":"2012-09-01"},{"id":71,"name":"Dellside Reserve Public Toilet, Richmond","description":"","address":"18 Barrington Pl, Richmond 7020, New Zealand","latitude":"-41.352202033679994","longitude":"173.20145842833332","tags":"Public Toilet","rating":"3","userID":"1","addedon":"2012-09-01"},{"id":72,"name":"ASB Aquatic Centre","description":"","address":"161 Salisbury Rd, Richmond 7020, New Zealand","latitude":"-41.333751810250718","longitude":"173.19971054722387","tags":"Pool","rating":"3","userID":"1","addedon":"2012-09-01"},{"id":73,"name":"Rabbit Island Public Toilet","description":"","address":"Forestry Rd, Rabbit Island 7081, New Zealand","latitude":"-41.264431420789776","longitude":"173.14992749515912","tags":"Public Toilet","rating":"3","userID":"1","addedon":"2012-09-01"},{"id":74,"name":"Mapua Recreation Reserve Public Toilet","description":"","address":"74 Aranui Rd, Mapua 7005, New Zealand","latitude":"-41.251910479453691","longitude":"173.0947930788405","tags":"Public Toilet","rating":"3","userID":"1","addedon":"2012-09-01"},{"id":75,"name":"Brightwater Recreation Reserve Public Toilet","description":"","address":"14 Lord Rutherford Rd N, Brightwater 7022, New Zealand","latitude":"-41.374926103602107","longitude":"173.10715872589023","tags":"Public Toilet","rating":"3","userID":"1","addedon":"2012-09-01"},{"id":76,"name":"Appleby Bridge Recreation Reserve Public Toilet","description":"","address":"538 Appleby Hwy, Appleby 7081, New Zealand","latitude":"-41.30832657936238","longitude":"173.1275190197542","tags":"Public Toilet","rating":"3","userID":"1","addedon":"2012-09-01"},{"id":77,"name":"Whitby Way Public Toilet, Wakefield","description":"","address":"2 Whitby Way, Wakefield 7025, New Zealand","latitude":"-41.405513575677148","longitude":"173.04297474352137","tags":"Public Toilet","rating":"3","userID":"1","addedon":"2012-09-01"},{"id":78,"name":"Grossi Point Recreation Reserve Public Toilet","description":"","address":"55 Tahi St, Mapua 7005, New Zealand","latitude":"-41.260728646364562","longitude":"173.0996119923613","tags":"Public Toilet","rating":"3","userID":"1","addedon":"2012-09-01"},{"id":79,"name":"Kina Beach Recreation Reserve Public Toilet","description":"","address":"11 Cliff Rd, Tasman 7173, New Zealand","latitude":"-41.185000330730418","longitude":"173.06544410350904","tags":"Public Toilet","rating":"3","userID":"1","addedon":"2012-09-01"},{"id":80,"name":"Busch Recreation Reserve Public Toilet","description":"","address":"374 Aniseed Valley Rd, Aniseed Valley 7081, New Zealand","latitude":"-41.386870794804246","longitude":"173.15655150042423","tags":"Public Toilet","rating":"3","userID":"1","addedon":"2012-09-01"},{"id":81,"name":"Firestones Reserve Public Toilet","description":"","address":"411 Lee Valley Rd, Lee Valley 7091, New Zealand","latitude":"-41.413471438266434","longitude":"173.16070001084347","tags":"Public Toilet","rating":"3","userID":"1","addedon":"2012-09-01"},{"id":82,"name":"Ligar Bay Esplanade Reserve Public Toilet","description":"","address":"1130 Abel Tasman Dr, Tata Beach 7183, New Zealand","latitude":"-40.822224886010645","longitude":"172.90876537140079","tags":"Public Toilet","rating":"3","userID":"1","addedon":"2012-09-01"},{"id":83,"name":"McKee Memorial Recreation Reserve Public Toilet","description":"","address":"1450 The Coastal Hwy, Ruby Bay 7173, New Zealand","latitude":"-41.214408754833904","longitude":"173.08381103397312","tags":"Public Toilet","rating":"3","userID":"1","addedon":"2012-09-01"},{"id":84,"name":"Meads Recreation Reserve Public Toilet","description":"","address":"118 Mead Rd, Lee Valley 7091, New Zealand","latitude":"-41.408933952551436","longitude":"173.16167157352109","tags":"Public Toilet","rating":"3","userID":"1","addedon":"2012-09-01"},{"id":85,"name":"Miles Reserve Public Toilet","description":"","address":"84 Bishop Rd, Parapara 7182, New Zealand","latitude":"-40.720893218371785","longitude":"172.69183756979066","tags":"Public Toilet","rating":"3","userID":"1","addedon":"2012-09-01"},{"id":86,"name":"Patons Rock Recreation Reserve Public Toilet","description":"","address":"212 Patons Rock Rd, Patons Rock 7182, New Zealand","latitude":"-40.787587662323716","longitude":"172.76170699761812","tags":"Public Toilet","rating":"3","userID":"1","addedon":"2012-09-01"},{"id":87,"name":"Pohara Recreation Reserve Public Toilet","description":"","address":"876 Abel Tasman Dr, Pohara 7183, New Zealand","latitude":"-40.83118882428824","longitude":"172.89195107120329","tags":"Public Toilet","rating":"3","userID":"1","addedon":"2012-09-01"},{"id":88,"name":"Stephens Bay Esplanade Reserve Public Toilet","description":"","address":"42 Stephens Bay Rd, Kaiteriteri 7197, New Zealand","latitude":"-41.048146784551115","longitude":"173.01796781621758","tags":"Public Toilet","rating":"3","userID":"1","addedon":"2012-09-01"},{"id":89,"name":"Twin Bridges Reserve Public Toilet","description":"","address":"397 Aniseed Valley Rd, Aniseed Valley 7081, New Zealand","latitude":"-41.384734597804325","longitude":"173.15832244621825","tags":"Public Toilet","rating":"3","userID":"1","addedon":"2012-09-01"},{"id":90,"name":"Upper Moutere Recreation Reserve Public Toilet","description":"","address":"1539 Moutere Hwy, Upper Moutere 7175, New Zealand","latitude":"-41.256634373419672","longitude":"173.0093323162051","tags":"Public Toilet","rating":"3","userID":"1","addedon":"2012-09-01"},{"id":91,"name":"Wai-iti Recreation Reserve Public Toilet","description":"","address":"437 Wakefield-Kohatu Hwy, Wai-Iti 7095, New Zealand","latitude":"-41.429652869911976","longitude":"172.99281292589575","tags":"Public Toilet","rating":"3","userID":"1","addedon":"2012-09-01"},{"id":92,"name":"White Gate Reserve Public Toilet","description":"","address":"615 Aniseed Valley Rd, Aniseed Valley 7081, New Zealand","latitude":"-41.388657437271434","longitude":"173.17410441322525","tags":"Public Toilet","rating":"3","userID":"1","addedon":"2012-09-01"},{"id":93,"name":"Wakefield Recreation Reserve Public Toilet","description":"","address":"10 State Hwy, Wakefield 7025, New Zealand","latitude":"-41.407166995902188","longitude":"173.03963152452371","tags":"Public Toilet","rating":"3","userID":"1","addedon":"2012-09-01"},{"id":94,"name":"Edward Baigent Reserve Public Toilet","description":"","address":"8 Wakefield-Kohatu Hwy, Wakefield 7025, New Zealand","latitude":"-41.407586800517819","longitude":"173.03506359114999","tags":"Public Toilet","rating":"3","userID":"1","addedon":"2012-09-01"},{"id":95,"name":"Faulkner Bush Reserve Public Toilet","description":"","address":"19 Clifford Rd, Wakefield 7025, New Zealand","latitude":"-41.407434686358243","longitude":"173.04036766695302","tags":"Public Toilet","rating":"3","userID":"1","addedon":"2012-09-01"},{"id":96,"name":"Alex Ryder Memorial Reserve Public Toilet","description":"","address":"61 Rowling Rd, Kaiteriteri 7197, New Zealand","latitude":"-41.042044305241319","longitude":"173.0179745111804","tags":"Public Toilet","rating":"3","userID":"1","addedon":"2012-09-01"},{"id":97,"name":"Uruwhenua Recreation Reserve Public Toilet","description":"","address":"1155 E Takaka Rd, Upper Takaka 7183, New Zealand","latitude":"-40.987969413761327","longitude":"172.82100042181165","tags":"Public Toilet","rating":"3","userID":"1","addedon":"2012-09-01"},{"id":98,"name":"Brooklyn Recreation Reserve Public Toilet","description":"","address":"78 Brooklyn Valley Rd, Brooklyn 7198, New Zealand","latitude":"-41.097009702650965","longitude":"172.95824175676952","tags":"Public Toilet","rating":"3","userID":"1","addedon":"2012-09-01"},{"id":99,"name":"Richards Recreation Reserve Public Toilet","description":"","address":"100 Wildman Rd, Motueka 7120, New Zealand","latitude":"-41.139007464378658","longitude":"172.99962831155852","tags":"Public Toilet","rating":"3","userID":"1","addedon":"2012-09-01"},{"id":100,"name":"Tasman Memorial Recreation Reserve Public Toilet","description":"","address":"11 Rush Ln, Tasman 7173, New Zealand","latitude":"-41.186338333695502","longitude":"173.04765890011117","tags":"Public Toilet","rating":"3","userID":"1","addedon":"2012-09-01"},{"id":101,"name":"Warring Carpark Public Toilet","description":"","address":"John Wesley Ln, Richmond 7020, New Zealand","latitude":"-41.340593850348192","longitude":"173.18524138014678","tags":"Public Toilet","rating":"3","userID":"1","addedon":"2012-09-01"},{"id":102,"name":"Kaiteriteri Beach Public Toilet","description":"","address":"15 Inlet Rd, Kaiteriteri 7197, New Zealand","latitude":"-41.037748419832141","longitude":"173.01660839095109","tags":"Public Toilet","rating":"3","userID":"1","addedon":"2012-09-01"},{"id":103,"name":"Pinehills Recreation Reserve Public Toilet","description":"","address":"210 Stafford Dr, Ruby Bay 7005, New Zealand","latitude":"-41.229565622716116","longitude":"173.08422578679244","tags":"Public Toilet","rating":"3","userID":"1","addedon":"2012-09-01"},{"id":104,"name":"Murchison Hospital and Health Centre","description":"","address":"58 Hotham St, Murchison 7007, New Zealand","latitude":"-41.806473134732144","longitude":"172.32851478919397","tags":"Hospital","rating":"3","userID":"1","addedon":"2012-09-01"},{"id":105,"name":"Golden Bay Community Hospital","description":"","address":"10 Central Takaka Rd, Takaka 7183, New Zealand","latitude":"-40.878243556074672","longitude":"172.81687631559356","tags":"Hospital","rating":"3","userID":"1","addedon":"2012-09-01"},{"id":106,"name":"Motueka Community Hospital","description":"","address":"15 Courtney St, Motueka 7120, New Zealand","latitude":"-41.129833830772995","longitude":"173.00824525558781","tags":"Hospital","rating":"3","userID":"1","addedon":"2012-09-01"},{"id":107,"name":"Fairfax Street Public Toilet, Murchison","description":"","address":"43 Fairfax St, Murchison 7007, New Zealand","latitude":"-41.800485388332881","longitude":"172.32565048284746","tags":"Public Toilet","rating":"3","userID":"1","addedon":"2012-09-01"},{"id":108,"name":"Nayland Pool","description":"Outdoor summer pools that include a separate toddlers pool, a pool for lengths and a dive pool. ","address":"192 Nayland Rd, Stoke, Nelson 7011, New Zealand","latitude":"-41.306055527621844","longitude":"173.23201022430607","tags":"Pool","rating":"3","userID":"1","addedon":"2012-09-01"},{"id":109,"name":"Tahunanui Model Railway","description":"","address":"Hounsell Cir, Tahunanui, Nelson 7011, New Zealand","latitude":"-41.282166755452138","longitude":"173.24427638717114","tags":"Model Train, Beach","rating":"3","userID":"1","addedon":"2012-09-01"},{"id":110,"name":"Riverside Pool","description":"","address":"25 Riverside Dr, Nelson, 7010, New Zealand","latitude":"-41.271917305330796","longitude":"173.28957190985631","tags":"Pool","rating":"3","userID":"1","addedon":"2012-09-01"},{"id":111,"name":"Suter Art Gallery","description":"","address":"208 Bridge St, Nelson, 7010, New Zealand","latitude":"-41.273012246483255","longitude":"173.28993795038838","tags":"Art Gallery, Gardens, Ducks","rating":"3","userID":"1","addedon":"2012-09-01"},{"id":112,"name":"Natureland","description":"","address":"Hounsell Cir, Tahunanui, Nelson 7011, New Zealand","latitude":"-41.281130222374919","longitude":"173.24457671246145","tags":"Animals,Beach","rating":"3","userID":"1","addedon":"2012-09-01"},{"id":113,"name":"Stoke Library","description":"","address":"35 Putaitai St, Stoke, Nelson 7011, New Zealand","latitude":"-41.311883691011644","longitude":"173.23334738028672","tags":"Library","rating":"3","userID":"1","addedon":"2012-09-01"},{"id":114,"name":"Stoke Toy Library","description":"","address":"206 Songer St, Stoke, Nelson 7011, New Zealand","latitude":"-41.313039736941953","longitude":"173.23183351981336","tags":"Toy Library","rating":"3","userID":"1","addedon":"2012-09-01"},{"id":115,"name":"Elma Turner Library Nelson","description":"","address":"2 Tahaki St, Nelson, 7010, New Zealand","latitude":"-41.270308072521239","longitude":"173.28297411215033","tags":"Library","rating":"3","userID":"1","addedon":"2012-09-01"},{"id":116,"name":"Nelson Toy Library","description":"","address":"13 Pettit Pl, The Wood, Nelson 7010, New Zealand","latitude":"-41.27000013761328","longitude":"173.28988191498084","tags":"Toy Library","rating":"3","userID":"1","addedon":"2012-09-01"},{"id":117,"name":"Nightingale Library Tahunanui","description":"","address":"2 Beach Rd, Tahunanui, Nelson 7011, New Zealand","latitude":"-41.280267865851798","longitude":"173.24969250664466","tags":"Library","rating":"3","userID":"1","addedon":"2012-09-01"},{"id":118,"name":"I-SITE Nelson Visitors Centre","description":"","address":"75-81 Trafalgar St, Nelson, 7010, New Zealand","latitude":"-41.270463929213342","longitude":"173.28433668662143","tags":"Visitor Centre","rating":"3","userID":"1","addedon":"2012-09-01"},{"id":119,"name":"Skate Park Webcam","description":"","address":"State Hwy, The Wood, Nelson 7010, New Zealand","latitude":"-41.263576473785328","longitude":"173.29065174740256","tags":"Skate Park","rating":"3","userID":"1","addedon":"2012-09-01"},{"id":120,"name":"Boulder Bank Lighthouse","description":"","address":"Brunt Quay, Port Nelson, Nelson 7010, New Zealand","latitude":"-41.254645565095451","longitude":"173.26513413930448","tags":"Public Toilet","rating":"3","userID":"1","addedon":"2012-09-01"},{"id":121,"name":"Hira North Long Drop","description":"","address":"769 Hira Rd, Hira 7071, New Zealand","latitude":"-41.213537608220179","longitude":"173.39799870235507","tags":"Public Toilet","rating":"3","userID":"1","addedon":"2012-09-01"},{"id":122,"name":"Hira South Long Drop","description":"","address":"769 Hira Rd, Hira 7071, New Zealand","latitude":"-41.213667658736604","longitude":"173.39785108958779","tags":"Public Toilet","rating":"3","userID":"1","addedon":"2012-09-01"},{"id":123,"name":"Sunday Swimming Hole Public Toilet","description":"","address":"102 Maitai Valley Rd, Maitai 7010, New Zealand","latitude":"-41.273172322911513","longitude":"173.31179448229562","tags":"Public Toilet","rating":"3","userID":"1","addedon":"2012-09-01"},{"id":124,"name":"Montgomery Sq Suprloo Public Toilet","description":"","address":"18 Montgomery Square, Nelson, 7010, New Zealand","latitude":"-41.273451721437908","longitude":"173.28250595000941","tags":"Public Toilet","rating":"3","userID":"1","addedon":"2012-09-01"},{"id":125,"name":"Buxton Square Public Toilet","description":"","address":"1 Buxton Square, Nelson, 7010, New Zealand","latitude":"-41.273480004856879","longitude":"173.28546578742288","tags":"Public Toilet","rating":"3","userID":"1","addedon":"2012-09-01"},{"id":126,"name":"Botanics - Gents Public Toilet","description":"","address":"192 Milton St, The Wood, Nelson 7010, New Zealand","latitude":"-41.273956931627062","longitude":"173.2947120128307","tags":"Public Toilet","rating":"3","userID":"1","addedon":"2012-09-01"},{"id":127,"name":"Monaco Reserve Public Toilet","description":"","address":"62 Point Rd, Monaco, Nelson 7011, New Zealand","latitude":"-41.304010750013056","longitude":"173.21361690072021","tags":"Public Toilet","rating":"3","userID":"1","addedon":"2012-09-01"},{"id":128,"name":"Wakapuaka Public Toilet","description":"","address":"464 Wakapuaka Rd, Wakapuaka 7071, New Zealand","latitude":"-41.207450289726253","longitude":"173.36383107694434","tags":"Public Toilet","rating":"3","userID":"1","addedon":"2012-09-01"},{"id":129,"name":"Miyazu Japanes Public Toilet","description":"","address":"125 Atawhai Dr, Atawhai, Nelson 7010, New Zealand","latitude":"-41.259141193207611","longitude":"173.29861157218224","tags":"Public Toilet","rating":"3","userID":"1","addedon":"2012-09-01"},{"id":130,"name":"Neale Park Public Toilet","description":"","address":"25 N Rd, The Wood, Nelson 7010, New Zealand","latitude":"-41.263112070700345","longitude":"173.29350409124592","tags":"Public Toilet","rating":"3","userID":"1","addedon":"2012-09-01"},{"id":131,"name":"Haulashore Island Long Drop","description":"","address":"385-387 State Hwy, Stepneyville, Nelson 7010, New Zealand","latitude":"-41.265824766048581","longitude":"173.25818464278484","tags":"Public Toilet","rating":"3","userID":"1","addedon":"2012-09-01"},{"id":132,"name":"Trafalgar Park Public Toilet","description":"","address":"30 Trafalgar St, The Wood, Nelson 7010, New Zealand","latitude":"-41.267803998139527","longitude":"173.28374374735711","tags":"Public Toilet","rating":"3","userID":"1","addedon":"2012-09-01"},{"id":133,"name":"Branford Park Public Toilet","description":"","address":"105 Maitai Valley Rd, Maitai 7010, New Zealand","latitude":"-41.272684845826802","longitude":"173.30698193173734","tags":"Public Toilet","rating":"3","userID":"1","addedon":"2012-09-01"},{"id":134,"name":"Queens Gardens Public Toilet","description":"","address":"208 Bridge St, Nelson, 7010, New Zealand","latitude":"-41.27285276252757","longitude":"173.29027184649959","tags":"Public Toilet","rating":"3","userID":"1","addedon":"2012-09-01"},{"id":135,"name":"Roller Skating Rink Public Toilet","description":"","address":"Back Beach Rd, Tahunanui, Nelson 7011, New Zealand","latitude":"-41.280084277488754","longitude":"173.24182389861707","tags":"Public Toilet","rating":"3","userID":"1","addedon":"2012-09-01"},{"id":136,"name":"Club House Public Toilet","description":"","address":"336 Maitai Valley Rd, Maitai 7010, New Zealand","latitude":"-41.280176183450621","longitude":"173.33084240954292","tags":"Public Toilet","rating":"3","userID":"1","addedon":"2012-09-01"},{"id":137,"name":"Victory Square Public Toilet","description":"","address":"160 Toi Toi St, Nelson South, Nelson 7010, New Zealand","latitude":"-41.281261033910219","longitude":"173.27096632447493","tags":"Public Toilet","rating":"3","userID":"1","addedon":"2012-09-01"},{"id":138,"name":"Modellers Pond Public Toilet","description":"","address":"Hounsell Cir, Tahunanui, Nelson 7011, New Zealand","latitude":"-41.281788369562662","longitude":"173.24270327468628","tags":"Public Toilet","rating":"3","userID":"1","addedon":"2012-09-01"},{"id":139,"name":"Melrose Grdns Public Toilet","description":"","address":"20 Melrose Terrace, Nelson South, Nelson 7010, New Zealand","latitude":"-41.282516146730636","longitude":"173.28471763865613","tags":"Public Toilet","rating":"3","userID":"1","addedon":"2012-09-01"},{"id":140,"name":"Golf Course Public Toilet","description":"","address":"336 Maitai Valley Rd, Maitai 7010, New Zealand","latitude":"-41.283334777377412","longitude":"173.32671028370106","tags":"Public Toilet","rating":"3","userID":"1","addedon":"2012-09-01"},{"id":141,"name":"Oyster Island Long Drop","description":"","address":"73 Martin St, Monaco, Nelson 7011, New Zealand","latitude":"-41.301304927592952","longitude":"173.20032257375982","tags":"Public Toilet","rating":"3","userID":"1","addedon":"2012-09-01"},{"id":142,"name":"Brook Camp Public Toilet","description":"","address":"600 Brook St, The Brook, Nelson 7010, New Zealand","latitude":"-41.308166147063361","longitude":"173.29281568158947","tags":"Public Toilet","rating":"3","userID":"1","addedon":"2012-09-01"},{"id":143,"name":"Brook Camp Public Toilet","description":"","address":"600 Brook St, The Brook, Nelson 7010, New Zealand","latitude":"-41.308820088078974","longitude":"173.29268647056489","tags":"Public Toilet","rating":"3","userID":"1","addedon":"2012-09-01"},{"id":144,"name":"Broadgreen Public Toilet","description":"","address":"276 Nayland Rd, Stoke, Nelson 7011, New Zealand","latitude":"-41.309148719175006","longitude":"173.22846288078026","tags":"Public Toilet","rating":"3","userID":"1","addedon":"2012-09-01"},{"id":145,"name":"Brook Camp Public Toilet","description":"","address":"600 Brook St, The Brook, Nelson 7010, New Zealand","latitude":"-41.309412180884387","longitude":"173.29242076036806","tags":"Public Toilet","rating":"3","userID":"1","addedon":"2012-09-01"},{"id":146,"name":"Brook Camp Public Toilet","description":"","address":"600 Brook St, The Brook, Nelson 7010, New Zealand","latitude":"-41.310628310305283","longitude":"173.29208682649926","tags":"Public Toilet","rating":"3","userID":"1","addedon":"2012-09-01"},{"id":147,"name":"Brook Camp Public Toilet","description":"","address":"600 Brook St, The Brook, Nelson 7010, New Zealand","latitude":"-41.310696857648828","longitude":"173.29214670678701","tags":"Public Toilet","rating":"3","userID":"1","addedon":"2012-09-01"},{"id":148,"name":"Brook Camp Public Toilet","description":"","address":"600 Brook St, The Brook, Nelson 7010, New Zealand","latitude":"-41.310851208455844","longitude":"173.29211880746209","tags":"Public Toilet","rating":"3","userID":"1","addedon":"2012-09-01"},{"id":149,"name":"Brook Camp Public Toilet","description":"","address":"600 Brook St, The Brook, Nelson 7010, New Zealand","latitude":"-41.310927822248374","longitude":"173.29208958379331","tags":"Public Toilet","rating":"3","userID":"1","addedon":"2012-09-01"},{"id":150,"name":"Stoke Library Public Toilet","description":"","address":"33 Putaitai St, Stoke, Nelson 7011, New Zealand","latitude":"-41.312034896300418","longitude":"173.23339291387498","tags":"Public Toilet","rating":"3","userID":"1","addedon":"2012-09-01"},{"id":151,"name":"Isel Park Public Toilet","description":"","address":"170 The Ridgeway, Stoke, Nelson 7011, New Zealand","latitude":"-41.313476675870255","longitude":"173.24059947223625","tags":"Public Toilet","rating":"3","userID":"1","addedon":"2012-09-01"},{"id":152,"name":"Third House Hut Long Drop","description":"","address":"600 Brook St, The Brook, Nelson 7010, New Zealand","latitude":"-41.324713815000578","longitude":"173.32560041763404","tags":"Public Toilet","rating":"3","userID":"1","addedon":"2012-09-01"},{"id":153,"name":"Roding Footbridge Long Drop","description":"","address":"1770 Aniseed Valley Rd, Aniseed Valley 7081, New Zealand","latitude":"-41.356547849125562","longitude":"173.26513528580185","tags":"Public Toilet","rating":"3","userID":"1","addedon":"2012-09-01"},{"id":154,"name":"Roding Radio Mast Long Drop","description":"","address":"1770 Aniseed Valley Rd, Aniseed Valley 7081, New Zealand","latitude":"-41.358726212364665","longitude":"173.25839902777076","tags":"Public Toilet","rating":"3","userID":"1","addedon":"2012-09-01"},{"id":155,"name":"Champion Smelter Long Drop","description":"","address":"Barnicoat Walkway, Aniseed Valley 7081, New Zealand","latitude":"-41.359764523630666","longitude":"173.29313477592126","tags":"Public Toilet","rating":"3","userID":"1","addedon":"2012-09-01"},{"id":156,"name":"United Creek Long Drop","description":"","address":"Barnicoat Walkway, Aniseed Valley 7081, New Zealand","latitude":"-41.367782351625237","longitude":"173.30769867816366","tags":"Public Toilet","rating":"3","userID":"1","addedon":"2012-09-01"},{"id":157,"name":"Back Beach Public Toilet","description":"","address":"Back Beach Rd, Tahunanui, Nelson 7011, New Zealand","latitude":"-41.279666717176745","longitude":"173.23732502273774","tags":"Public Toilet","rating":"3","userID":"1","addedon":"2012-09-01"},{"id":158,"name":"Pioneers Park Public Toilet","description":"","address":"10 Washington Rd, Washington Valley, Nelson 7010, New Zealand","latitude":"-41.272671548544778","longitude":"173.27573132744877","tags":"Public Toilet","rating":"3","userID":"1","addedon":"2012-09-01"},{"id":159,"name":"Beach Cafe Public Toilet","description":"","address":"Bisley Walk, Tahunanui, Nelson 7011, New Zealand","latitude":"-41.279983511807664","longitude":"173.24477008681725","tags":"Public Toilet","rating":"3","userID":"1","addedon":"2012-09-01"},{"id":160,"name":"Netball Pavillion Public Toilet","description":"","address":"117-123 Saxton Rd, Stoke, Nelson 7011, New Zealand","latitude":"-41.328033613238674","longitude":"173.21756981893159","tags":"Public Toilet","rating":"3","userID":"1","addedon":"2012-09-01"},{"id":161,"name":"Vickerman Street Public Toilet","description":"","address":"52 Vickerman St, Port Nelson, Nelson 7010, New Zealand","latitude":"-41.263682155504405","longitude":"173.27848006639655","tags":"Public Toilet","rating":"3","userID":"1","addedon":"2012-09-01"},{"id":162,"name":"Tahuna Library Public Toilet","description":"","address":"2 Beach Rd, Tahunanui, Nelson 7011, New Zealand","latitude":"-41.280358238408354","longitude":"173.2496853902833","tags":"Public Toilet","rating":"3","userID":"1","addedon":"2012-09-01"},{"id":163,"name":"Lions Playground Public Toilet","description":"","address":"Bisley Walk, Tahunanui, Nelson 7011, New Zealand","latitude":"-41.279641472302586","longitude":"173.2496484941517","tags":"Public Toilet","rating":"3","userID":"1","addedon":"2012-09-01"},{"id":164,"name":"Botanics - Ladies Public Toilet","description":"","address":"192 Milton St, The Wood, Nelson 7010, New Zealand","latitude":"-41.274067878274245","longitude":"173.29469463053769","tags":"Public Toilet","rating":"3","userID":"1","addedon":"2012-09-01"},{"id":165,"name":"Millers Acre Public Toilet","description":"","address":"5 Ajax Ave, Nelson, 7010, New Zealand","latitude":"-41.270313655241829","longitude":"173.28454760347242","tags":"Public Toilet","rating":"3","userID":"1","addedon":"2012-09-01"},{"id":166,"name":"Greenmeadows Public Toilet","description":"","address":"236 Songer St, Stoke, Nelson 7011, New Zealand","latitude":"-41.313539659604594","longitude":"173.23467868328086","tags":"Public Toilet","rating":"3","userID":"1","addedon":"2012-09-01"},{"id":167,"name":"Bisley Walk Public Toilet","description":"","address":"Bisley Walk, Tahunanui, Nelson 7011, New Zealand","latitude":"-41.280079457994482","longitude":"173.24752218282757","tags":"Public Toilet","rating":"3","userID":"1","addedon":"2012-09-01"},{"id":168,"name":"Ngawhatu Public Toilet","description":"","address":"19 Ngawhatu Rd, Stoke, Nelson 7011, New Zealand","latitude":"-41.323154892155024","longitude":"173.23232404902157","tags":"Public Toilet","rating":"3","userID":"1","addedon":"2012-09-01"},{"id":169,"name":"Basin Reserve Public Toilet","description":"","address":"431-541 State Hwy, Britannia Heights, Nelson 7010, New Zealand","latitude":"-41.272401550899502","longitude":"173.25999982798717","tags":"Public Toilet","rating":"3","userID":"1","addedon":"2012-09-01"},{"id":170,"name":"Wakefield Quay Public Toilet","description":"","address":"272 Wakefield Quay, Stepneyville, Nelson 7010, New Zealand","latitude":"-41.26306926736865","longitude":"173.26912546131021","tags":"Public Toilet","rating":"3","userID":"1","addedon":"2012-09-01"},{"id":171,"name":"Branford Bbq Public Toilet","description":"","address":"102 Maitai Valley Rd, Maitai 7010, New Zealand","latitude":"-41.273572506148859","longitude":"173.30677413241719","tags":"Public Toilet","rating":"3","userID":"1","addedon":"2012-09-01"},{"id":172,"name":"Hockey Pavillion Public Toilet","description":"","address":"142 Saxton Rd E, Stoke, Nelson 7011, New Zealand","latitude":"-41.329715685525244","longitude":"173.21947262082617","tags":"Public Toilet","rating":"3","userID":"1","addedon":"2012-09-01"},{"id":173,"name":"Soccer Pavillion Public Toilet","description":"","address":"Main Rd, Stoke, Nelson 7011, New Zealand","latitude":"-41.328322207628887","longitude":"173.21349114942907","tags":"Public Toilet","rating":"3","userID":"1","addedon":"2012-09-01"},{"id":174,"name":"Novaloo Public Toilet","description":"","address":"19 Haven Rd, Nelson, 7010, New Zealand","latitude":"-41.271445355443127","longitude":"173.28017402526797","tags":"Public Toilet","rating":"3","userID":"1","addedon":"2012-09-01"},{"id":175,"name":"Nelson Provincial Museum","description":"","address":"270 Trafalgar St, Nelson, 7010, New Zealand","latitude":"-41.27446211582442","longitude":"173.28354586090873","tags":"Museum","rating":"3","userID":"1","addedon":"2012-09-01"},{"id":176,"name":"Brook Waimarama Sanctuary","description":"","address":"600 Brook St, The Brook, Nelson 7010, New Zealand","latitude":"-41.311893780824214","longitude":"173.29242568847073","tags":"Birds, Nature Reserve,Walk","rating":"3","userID":"1","addedon":"2012-09-01"},{"id":177,"name":"Founders Heritage Park","description":"","address":"Everett St, The Wood, Nelson 7010, New Zealand","latitude":"-41.261783563994811","longitude":"173.29756238625771","tags":"Historic","rating":"3","userID":"1","addedon":"2012-09-01"},{"id":178,"name":"Branford Park Playground","description":"","address":"102 Maitai Valley Rd, Maitai 7010, New Zealand","latitude":"-41.273753003508652","longitude":"173.30667299752042","tags":"Playground","rating":"3","userID":"1","addedon":"2012-09-01"},{"id":179,"name":"The Glen Reserve Playground","description":"","address":"28 Seafield Terrace, Glenduan 7071, New Zealand","latitude":"-41.185770584985299","longitude":"173.36150022330085","tags":"Playground","rating":"3","userID":"1","addedon":"2012-09-01"},{"id":180,"name":"Monaco Reserve Playground","description":"","address":"62 Point Rd, Monaco, Nelson 7011, New Zealand","latitude":"-41.303549257153698","longitude":"173.21365787830669","tags":"Playground","rating":"3","userID":"1","addedon":"2012-09-01"},{"id":181,"name":"Russell Reserve Playground","description":"","address":"4 Queens Rd, Stepneyville, Nelson 7010, New Zealand","latitude":"-41.26731373189142","longitude":"173.27108832541734","tags":"Playground","rating":"3","userID":"1","addedon":"2012-09-01"},{"id":182,"name":"Wards Reserve Playground","description":"","address":"26 Brook St, The Brook, Nelson 7010, New Zealand","latitude":"-41.281889076079565","longitude":"173.29082405591089","tags":"Playground","rating":"3","userID":"1","addedon":"2012-09-01"},{"id":183,"name":"Brook Park Playground","description":"","address":"113 Brook St, The Brook, Nelson 7010, New Zealand","latitude":"-41.289107304991596","longitude":"173.29179803574482","tags":"Playground","rating":"3","userID":"1","addedon":"2012-09-01"},{"id":184,"name":"Bolt Reserve Playground","description":"","address":"36 Golf Haven Way, Annesbrook, Nelson 7011, New Zealand","latitude":"-41.291174691733147","longitude":"173.23552720776732","tags":"Playground","rating":"3","userID":"1","addedon":"2012-09-01"},{"id":185,"name":"Blackwood East Reserve Playground","description":"","address":"5 Blackwood St, Wakatu, Nelson 7011, New Zealand","latitude":"-41.295296635939692","longitude":"173.24468428664895","tags":"Playground","rating":"3","userID":"1","addedon":"2012-09-01"},{"id":186,"name":"Aldinga Reserve Playground","description":"","address":"7 Lusty Pl, Stoke, Nelson 7011, New Zealand","latitude":"-41.311746211659987","longitude":"173.22386079647106","tags":"Playground","rating":"3","userID":"1","addedon":"2012-09-01"},{"id":187,"name":"Manson Reserve Playground","description":"","address":"9A Manson Ave, Stoke, Nelson 7011, New Zealand","latitude":"-41.320372072215307","longitude":"173.22795284461708","tags":"Playground","rating":"3","userID":"1","addedon":"2012-09-01"},{"id":188,"name":"Bledisloe South Reserve Playground","description":"","address":"49 Bledisloe Ave, Stoke, Nelson 7011, New Zealand","latitude":"-41.305992233673237","longitude":"173.23891004220576","tags":"Playground","rating":"3","userID":"1","addedon":"2012-09-01"},{"id":189,"name":"Vosper Reserve Playground","description":"","address":"3A Vosper St, Toi Toi, Nelson 7010, New Zealand","latitude":"-41.279627233635239","longitude":"173.26727072078947","tags":"Playground","rating":"3","userID":"1","addedon":"2012-09-01"},{"id":190,"name":"Waimea North Reserve Playground","description":"","address":"201 Kawai St S, Nelson South, Nelson 7010, New Zealand","latitude":"-41.291512945028217","longitude":"173.26885431479189","tags":"Playground","rating":"3","userID":"1","addedon":"2012-09-01"},{"id":191,"name":"Murphy North Reserve Playground","description":"","address":"34 Murphy St, Toi Toi, Nelson 7010, New Zealand","latitude":"-41.285122963917409","longitude":"173.26386344157982","tags":"Playground","rating":"3","userID":"1","addedon":"2012-09-01"},{"id":192,"name":"Poets Park Playground","description":"","address":"11 Shelley Crescent, Stoke, Nelson 7011, New Zealand","latitude":"-41.314749110252059","longitude":"173.22697321302539","tags":"Playground","rating":"3","userID":"1","addedon":"2012-09-01"},{"id":193,"name":"Fairfield Park Playground","description":"","address":"12A Brougham St, Nelson South, Nelson 7010, New Zealand","latitude":"-41.282019700966138","longitude":"173.28203150813053","tags":"Playground","rating":"3","userID":"1","addedon":"2012-09-01"},{"id":194,"name":"Werneth Reserve Playground","description":"","address":"10 Werneth St, Atawhai, Nelson 7010, New Zealand","latitude":"-41.237816215743024","longitude":"173.32228242290128","tags":"Playground","rating":"3","userID":"1","addedon":"2012-09-01"},{"id":195,"name":"Montrose Reserve Playground","description":"","address":"11B Montrose Dr, Atawhai, Nelson 7010, New Zealand","latitude":"-41.252806054396501","longitude":"173.31116545974257","tags":"Playground","rating":"3","userID":"1","addedon":"2012-09-01"},{"id":196,"name":"Wakapuaka Reserve Playground","description":"","address":"460 Wakapuaka Rd, Wakapuaka 7071, New Zealand","latitude":"-41.207439777687533","longitude":"173.36345046955981","tags":"Playground","rating":"3","userID":"1","addedon":"2012-09-01"},{"id":197,"name":"Wolfe Reserve Playground","description":"","address":"50 Wolfe St, Washington Valley, Nelson 7010, New Zealand","latitude":"-41.274673608258162","longitude":"173.26742371823136","tags":"Playground","rating":"3","userID":"1","addedon":"2012-09-01"},{"id":198,"name":"Riverside Reserve Playground","description":"","address":"25 Riverside Dr, Nelson, 7010, New Zealand","latitude":"-41.271863874672064","longitude":"173.28921498884409","tags":"Playground","rating":"3","userID":"1","addedon":"2012-09-01"},{"id":199,"name":"Ngaio Reserve Playground","description":"","address":"8 Ngaio St, Stoke, Nelson 7011, New Zealand","latitude":"-41.309168205537283","longitude":"173.23981672147798","tags":"Playground","rating":"3","userID":"1","addedon":"2012-09-01"},{"id":200,"name":"Poplar Reserve Playground","description":"","address":"28 Panorama Dr, Enner Glynn, Nelson 7011, New Zealand","latitude":"-41.310418672655196","longitude":"173.24970692605262","tags":"Playground","rating":"3","userID":"1","addedon":"2012-09-01"},{"id":201,"name":"Cattle Market Reserve Playground","description":"","address":"14 Ben Bracken Pl, Bishopdale, Nelson 7010, New Zealand","latitude":"-41.293997740245935","longitude":"173.26881610945901","tags":"Playground","rating":"3","userID":"1","addedon":"2012-09-01"},{"id":202,"name":"Marsden Recreation Ground Playground","description":"","address":"210 Songer St, Stoke, Nelson 7011, New Zealand","latitude":"-41.313115043233331","longitude":"173.23200261817792","tags":"Playground","rating":"3","userID":"1","addedon":"2012-09-01"},{"id":203,"name":"Victory Square Playground","description":"","address":"3 Northesk St, Nelson South, Nelson 7010, New Zealand","latitude":"-41.279937498532682","longitude":"173.27101484629489","tags":"Playground","rating":"3","userID":"1","addedon":"2012-09-01"},{"id":204,"name":"Botanics Sportsfield Playground","description":"","address":"184-186 Milton St, The Wood, Maitai 7010, New Zealand","latitude":"-41.273532628412958","longitude":"173.29487738799955","tags":"Playground","rating":"3","userID":"1","addedon":"2012-09-01"},{"id":205,"name":"Neale Park Playground","description":"","address":"25 N Rd, The Wood, Nelson 7010, New Zealand","latitude":"-41.262582548968972","longitude":"173.2952849913498","tags":"Playground","rating":"3","userID":"1","addedon":"2012-09-01"},{"id":206,"name":"Abraham Heights Reserve Playground","description":"","address":"69 Abraham Heights, Washington Valley, Nelson 7010, New Zealand","latitude":"-41.277324677134381","longitude":"173.26477219939594","tags":"Playground","rating":"3","userID":"1","addedon":"2012-09-01"},{"id":207,"name":"Ngawhatu Sportsfield Playground","description":"","address":"303 The Ridgeway S, Stoke, Nelson 7011, New Zealand","latitude":"-41.321637369750448","longitude":"173.23275130340687","tags":"Playground","rating":"3","userID":"1","addedon":"2012-09-01"},{"id":208,"name":"Grove Reserve Playground","description":"","address":"1 Rosa Cristina Way, The Wood, Nelson 7010, New Zealand","latitude":"-41.26977433352247","longitude":"173.28990165096786","tags":"Playground","rating":"3","userID":"1","addedon":"2012-09-01"},{"id":209,"name":"Saxton Field Playground","description":"","address":"92 Saxton Rd E, Stoke, Nelson 7011, New Zealand","latitude":"-41.328065700294957","longitude":"173.21589610028269","tags":"Playground","rating":"3","userID":"1","addedon":"2012-09-01"},{"id":210,"name":"Tahunanui Recreation Reserve Playground","description":"","address":"Bisley Walk, Tahunanui, Nelson 7011, New Zealand","latitude":"-41.279508474920235","longitude":"173.24902673850528","tags":"Playground","rating":"3","userID":"1","addedon":"2012-09-01"},{"id":211,"name":"Pioneers Park Playground","description":"","address":"19 Washington Rd, Washington Valley, Nelson 7010, New Zealand","latitude":"-41.272487450941846","longitude":"173.27542079097387","tags":"Playground","rating":"3","userID":"1","addedon":"2012-09-01"},{"id":212,"name":"Tresillian Reserve Playground","description":"","address":"10 Tresillian Ave, Marybank, Nelson 7010, New Zealand","latitude":"-41.224606359271696","longitude":"173.32365679137453","tags":"Playground","rating":"3","userID":"1","addedon":"2012-09-01"},{"id":213,"name":"Manu Kau Reserve Playground","description":"","address":"30 Monaco View, Stoke, Nelson 7011, New Zealand","latitude":"-41.313306925499383","longitude":"173.21588095184777","tags":"Playground","rating":"3","userID":"1","addedon":"2012-09-01"},{"id":214,"name":"Annesbrook Youth Park Playground","description":"","address":"State Hwy, Stoke, Nelson 7011, New Zealand","latitude":"-41.299517090228733","longitude":"173.24239448839029","tags":"Playground","rating":"3","userID":"1","addedon":"2012-09-01"},{"id":215,"name":"Centre of NZ","description":"","address":"5 Maitai Rd, Maitai 7010, New Zealand","latitude":"-41.272810310912419","longitude":"173.29949879688564","tags":"View, Walk","rating":"3","userID":"1","addedon":"2012-09-01"},{"id":216,"name":"Tahunanui Beach","description":"","address":"Bisley Walk, Tahunanui, Nelson 7011, New Zealand","latitude":"-41.279141844685107","longitude":"173.24662215495928","tags":"Beach,Walk","rating":"3","userID":"1","addedon":"2012-09-01"},{"id":217,"name":"Nelson Hospital","description":"","address":"98 Waimea Rd, Nelson South, Nelson 7010, New Zealand","latitude":"-41.287410390845977","longitude":"173.27264741769963","tags":"Hospital","rating":"3","userID":"1","addedon":"2012-09-01"},{"id":218,"name":"Linden Place Reserve Open Orchard","description":"","address":"13 Linden Pl, Brooklyn 7198, New Zealand","latitude":"-41.097259990796843","longitude":"172.96580499021687","tags":"Open Orchard","rating":"3","userID":"1","addedon":"2012-09-01"},{"id":219,"name":"Decks Reserve Open Orchard","description":"","address":"24 Wallace St, Motueka 7120, New Zealand","latitude":"-41.111224990565702","longitude":"173.01263400047259","tags":"Open Orchard","rating":"3","userID":"1","addedon":"2012-09-01"},{"id":220,"name":"Open Orchard","description":"","address":"29 Mcglashen St, Motueka 7120, New Zealand","latitude":"-41.11264799135607","longitude":"173.0048070003001","tags":"Open Orchard","rating":"3","userID":"1","addedon":"2012-09-01"},{"id":221,"name":"Motueka High School Open Orchard","description":"","address":"11 Wakatu Pl, Motueka 7120, New Zealand","latitude":"-41.114409991017808","longitude":"173.00720200058896","tags":"Open Orchard","rating":"3","userID":"1","addedon":"2012-09-01"},{"id":222,"name":"Motueka Hospital Open Orchard","description":"","address":"15 Courtney St, Motueka 7120, New Zealand","latitude":"-41.129825000971394","longitude":"173.00840900009729","tags":"Open Orchard","rating":"3","userID":"1","addedon":"2012-09-01"},{"id":223,"name":"Open Orchard","description":"Pears","address":"655 Atawhai Crescent, Atawhai, Nelson 7010, New Zealand","latitude":"-41.236155991377707","longitude":"173.31723000053239","tags":"Open Orchard","rating":"3","userID":"1","addedon":"2012-09-01"},{"id":224,"name":"Open Orchard","description":"","address":"714A Atawhai Dr, Atawhai, Nelson 7010, New Zealand","latitude":"-41.236442991379207","longitude":"173.31648298991541","tags":"Open Orchard","rating":"3","userID":"1","addedon":"2012-09-01"},{"id":225,"name":"Open Orchard","description":"","address":"655 Atawhai Crescent, Atawhai, Nelson 7010, New Zealand","latitude":"-41.23664099090692","longitude":"173.31677200041202","tags":"Open Orchard","rating":"3","userID":"1","addedon":"2012-09-01"},{"id":226,"name":"Clifton Terrace School Open Orchard","description":"Fig Quince Feijoa Citrus Hazelnut","address":"655 Atawhai Crescent, Atawhai, Nelson 7010, New Zealand","latitude":"-41.236697000846974","longitude":"173.31667800007054","tags":"Open Orchard","rating":"3","userID":"1","addedon":"2012-09-01"},{"id":227,"name":"Frenchhay Drive Open Orchard","description":"Apples And Citrus Trees","address":"9 Frenchay Dr, Atawhai, Nelson 7010, New Zealand","latitude":"-41.243651000888235","longitude":"173.32467399993104","tags":"Open Orchard","rating":"3","userID":"1","addedon":"2012-09-01"},{"id":228,"name":"Wakapuaka Cemetery Open Orchard","description":"Lemon","address":"272 Atawhai Dr, Atawhai, Nelson 7010, New Zealand","latitude":"-41.254645990840814","longitude":"173.30374098986658","tags":"Open Orchard","rating":"3","userID":"1","addedon":"2012-09-01"},{"id":229,"name":"Atawahi Drive Open Orchard","description":"30 Olive Trees","address":"272 Atawhai Dr, Atawhai, Nelson 7010, New Zealand","latitude":"-41.256114990879382","longitude":"173.29991100023346","tags":"Open Orchard","rating":"3","userID":"1","addedon":"2012-09-01"},{"id":230,"name":"Miyazu Park Orchard","description":"20 Cherry Trees","address":"125 Atawhai Dr, Atawhai, Nelson 7010, New Zealand","latitude":"-41.259090000580507","longitude":"173.29929200018407","tags":"Open Orchard","rating":"3","userID":"1","addedon":"2012-09-01"},{"id":231,"name":"Open Orchard","description":"2 Olives","address":"5 Walters Bluff, Atawhai, Nelson 7010, New Zealand","latitude":"-41.260516991357441","longitude":"173.29937700025837","tags":"Open Orchard","rating":"3","userID":"1","addedon":"2012-09-01"},{"id":232,"name":"Walters Bluff Open Orchard","description":"30 Olive Trees","address":"5 Walters Bluff, Atawhai, Nelson 7010, New Zealand","latitude":"-41.260517000551246","longitude":"173.29937000015306","tags":"Open Orchard","rating":"3","userID":"1","addedon":"2012-09-01"},{"id":233,"name":"Neale Park Cycleway Open Orchard","description":"6 Feijoas","address":"State Hwy, The Wood, Nelson 7010, New Zealand","latitude":"-41.262500991284703","longitude":"173.29257200014959","tags":"Open Orchard","rating":"3","userID":"1","addedon":"2012-09-01"},{"id":234,"name":"Iwa Road Open Orchard","description":"3 Plum Trees","address":"Iwa Rd, The Wood, Nelson 7010, New Zealand","latitude":"-41.263195000742286","longitude":"173.297997000344","tags":"Open Orchard","rating":"3","userID":"1","addedon":"2012-09-01"},{"id":235,"name":"Open Orchard","description":"Apple","address":"5 Weka St, The Wood, Nelson 7010, New Zealand","latitude":"-41.26625099127584","longitude":"173.2883450003682","tags":"Open Orchard","rating":"3","userID":"1","addedon":"2012-09-01"},{"id":236,"name":"Rutherford Park Open Orchard","description":"Irish Strawberry","address":"State Hwy, Nelson, 7010, New Zealand","latitude":"-41.266700991298912","longitude":"173.27943399036661","tags":"Open Orchard","rating":"3","userID":"1","addedon":"2012-09-01"},{"id":237,"name":"Open Orchard","description":"2 Olive Trees","address":"5 Fountain Pl, Beachville, Nelson 7010, New Zealand","latitude":"-41.266974991069013","longitude":"173.27561999033605","tags":"Open Orchard","rating":"3","userID":"1","addedon":"2012-09-01"},{"id":238,"name":"Rutherford Park Open Orchard","description":"Irish Strawberry","address":"State Hwy, Port Nelson, Nelson 7010, New Zealand","latitude":"-41.267112991366503","longitude":"173.27879298999767","tags":"Open Orchard","rating":"3","userID":"1","addedon":"2012-09-01"},{"id":239,"name":"Rutherford Park Open Orchard","description":"Apple","address":"111 Haven Rd, Nelson, 7010, New Zealand","latitude":"-41.267508991380097","longitude":"173.27838099005257","tags":"Open Orchard","rating":"3","userID":"1","addedon":"2012-09-01"},{"id":240,"name":"Auckland Point Kindergarten Open Orchard","description":"Fig","address":"111 Haven Rd, Nelson, 7010, New Zealand","latitude":"-41.268142991356413","longitude":"173.27746600039424","tags":"Open Orchard","rating":"3","userID":"1","addedon":"2012-09-01"},{"id":241,"name":"Auckland Point Kindergarten Open Orchard","description":"Pear","address":"111 Haven Rd, Nelson, 7010, New Zealand","latitude":"-41.268187990966943","longitude":"173.27761799037742","tags":"Open Orchard","rating":"3","userID":"1","addedon":"2012-09-01"},{"id":242,"name":"Grove Street Open Orchard","description":"3 Olives","address":"1 Grove St, The Wood, Nelson 7010, New Zealand","latitude":"-41.269000990867703","longitude":"173.28437800019458","tags":"Open Orchard","rating":"3","userID":"1","addedon":"2012-09-01"},{"id":243,"name":"Grove Street Open Orchard","description":"1 Olive","address":"96 Grove St, The Wood, Nelson 7010, New Zealand","latitude":"-41.269355990666284","longitude":"173.29446400016428","tags":"Open Orchard","rating":"3","userID":"1","addedon":"2012-09-01"},{"id":244,"name":"Maitai Walkway Open Orchard","description":"Linden: Collect Flowers To Make A Tea","address":"13-15 Ajax Ave, Nelson, 7010, New Zealand","latitude":"-41.269595990580299","longitude":"173.28646899024784","tags":"Open Orchard","rating":"3","userID":"1","addedon":"2012-09-01"},{"id":245,"name":"Maitai Walkway Open Orchard","description":"Linden: Collect Flowers To Make A Tea","address":"7-13 Ajax Ave, Nelson, 7010, New Zealand","latitude":"-41.269767990790619","longitude":"173.28575099019045","tags":"Open Orchard","rating":"3","userID":"1","addedon":"2012-09-01"},{"id":246,"name":"Open Orchard","description":"Cherry","address":"73-85 Halifax St, The Wood, Nelson 7010, New Zealand","latitude":"-41.270968990673623","longitude":"173.29115299008765","tags":"Open Orchard","rating":"3","userID":"1","addedon":"2012-09-01"},{"id":247,"name":"Anzac Park Open Orchard","description":"Macadamia","address":"23 Haven Rd, Nelson, 7010, New Zealand","latitude":"-41.27112999137605","longitude":"173.27967800007963","tags":"Open Orchard","rating":"3","userID":"1","addedon":"2012-09-01"},{"id":248,"name":"Maitai Valley Walkway Open Orchard","description":"3 Fig Trees","address":"105 Maitai Valley Rd, Maitai 7010, New Zealand","latitude":"-41.272090991379528","longitude":"173.31025700039399","tags":"Open Orchard","rating":"3","userID":"1","addedon":"2012-09-01"},{"id":249,"name":"Branford Park Open Orchard","description":"2 Walnuts 1 Fig","address":"102 Maitai Valley Rd, Maitai 7010, New Zealand","latitude":"-41.272719990501351","longitude":"173.30581800022645","tags":"Open Orchard","rating":"3","userID":"1","addedon":"2012-09-01"},{"id":250,"name":"Quebec Road Open Orchard","description":"Peach","address":"43-45 Arrow St, Washington Valley, Nelson 7010, New Zealand","latitude":"-41.272853990652557","longitude":"173.27082799006155","tags":"Open Orchard","rating":"3","userID":"1","addedon":"2012-09-01"},{"id":251,"name":"Open Orchard","description":"Apple","address":"188 Atawhai Dr, Atawhai, Nelson 7010, New Zealand","latitude":"-41.25710373201656","longitude":"173.30077101479645","tags":"Open Orchard","rating":"3","userID":"1","addedon":"2012-09-01"},{"id":252,"name":"Open Orchard","description":"Plum","address":"Trent Dr, Nelson Airport, Nelson 7011, New Zealand","latitude":"-41.297247834242604","longitude":"173.23079198035899","tags":"Open Orchard","rating":"3","userID":"1","addedon":"2012-09-01"},{"id":253,"name":"Open Orchard","description":"6 Feijoas","address":"5 Rossetti Ct, Stoke, Nelson 7011, New Zealand","latitude":"-41.318171536161444","longitude":"173.22455901803227","tags":"Open Orchard","rating":"3","userID":"1","addedon":"2012-09-01"},{"id":254,"name":"Open Orchard","description":"Wild Watercress","address":"921 Main Road Stoke, Richmond 7020, New Zealand","latitude":"-41.331659313435281","longitude":"173.20967675842977","tags":"Open Orchard","rating":"3","userID":"1","addedon":"2012-09-01"},{"id":255,"name":"Railway Reserve Stoke Open Orchard","description":"1 Feijoa","address":"14 Wordsworth Pl, Stoke, Nelson 7011, New Zealand","latitude":"-41.317375828806249","longitude":"173.22524337567569","tags":"Open Orchard","rating":"3","userID":"1","addedon":"2012-09-01"},{"id":256,"name":"Railway Reserve Stoke Open Orchard","description":"4 Feijoas","address":"652 Main Road Stoke, Stoke, Nelson 7011, New Zealand","latitude":"-41.317805680897933","longitude":"173.22533382119576","tags":"Open Orchard","rating":"3","userID":"1","addedon":"2012-09-01"},{"id":257,"name":"Willow Walk Open Orchard","description":"Watercress And Mint","address":"41 Alton St, Nelson, 7010, New Zealand","latitude":"-41.27774764206697","longitude":"173.28954591683507","tags":"Open Orchard","rating":"3","userID":"1","addedon":"2012-09-01"},{"id":258,"name":"Open Orchard","description":"Apple","address":"55 Milnthorpe Quay, Parapara 7182, New Zealand","latitude":"-40.716523076704028","longitude":"172.68405047939495","tags":"Open Orchard","rating":"3","userID":"1","addedon":"2012-09-01"},{"id":259,"name":"Marchwood Grove Open Orchard","description":"Watercress","address":"1-2 Marchwood Grove, Richmond 7020, New Zealand","latitude":"-41.335060002696544","longitude":"173.20186144564448","tags":"Open Orchard","rating":"3","userID":"1","addedon":"2012-09-01"},{"id":260,"name":"Stoke Hall Public Toilet","description":"","address":"548 Main Road Stoke, Stoke, Nelson 7011, New Zealand","latitude":"-41.314310736166092","longitude":"173.23229269470374","tags":"Open Orchard","rating":"3","userID":"1","addedon":"2012-09-01"},{"id":261,"name":"Greenmeadows Sports Field Public Toilet","description":"","address":"23 Suter St, Stoke, Nelson 7011, New Zealand","latitude":"-41.313652408669192","longitude":"173.23840237989816","tags":"Open Orchard","rating":"3","userID":"1","addedon":"2012-09-01"},{"id":262,"name":"ANZ ATM BP 2GO HAVEN ROAD","description":"","address":"163 Haven Rd, Beachville, Nelson 7010, New Zealand","latitude":"-41.266698374016883","longitude":"173.27573507230122","tags":"Atm","rating":"3","userID":"1","addedon":"2012-09-01"},{"id":263,"name":"WESTPAC ATM COUNTDOWN NELSON","description":"","address":"3 St Vincent Street, Nelson, 7010, New Zealand","latitude":"-41.272699663984071","longitude":"173.27785408396417","tags":"Atm","rating":"3","userID":"1","addedon":"2012-09-01"},{"id":264,"name":"WESTPAC ATM PAPERPLUS NELSON","description":"","address":"237 Trafalgar St, Nelson, 7010, New Zealand","latitude":"-41.273814808002228","longitude":"173.28410035801045","tags":"Atm","rating":"3","userID":"1","addedon":"2012-09-01"},{"id":265,"name":"WESTPAC ATM TATTOO LOUNGE","description":"","address":"9 Tahunanui Dr, Tahunanui, Nelson 7011, New Zealand","latitude":"-41.281028849470125","longitude":"173.2497068945988","tags":"Atm","rating":"3","userID":"1","addedon":"2012-09-01"},{"id":266,"name":"ANZ ATM PUTAITAI STREET STOKE","description":"","address":"15-17 Putaitai St, Stoke, Nelson 7011, New Zealand","latitude":"-41.312075284132206","longitude":"173.23398046093365","tags":"Atm","rating":"3","userID":"1","addedon":"2012-09-01"},{"id":267,"name":"ANZ ATM NELSON BRANCH","description":"","address":"","latitude":"-41.274406965833364","longitude":"73.28413911566446","tags":"Atm","rating":"3","userID":"1","addedon":"2012-09-01"},{"id":268,"name":"ASB ATM NELSON BRANCH","description":"","address":"260 Trafalgar St, Nelson, 7010, New Zealand","latitude":"-41.274147330259886","longitude":"173.28370970270808","tags":"Atm","rating":"3","userID":"1","addedon":"2012-09-01"},{"id":269,"name":"BNZ ATM NELSON BRANCH","description":"","address":"228 Trafalgar St, Nelson, 7010, New Zealand","latitude":"-41.273526472438128","longitude":"173.28377003321481","tags":"Atm","rating":"3","userID":"1","addedon":"2012-09-01"},{"id":270,"name":"ANZ ATM FASHION ISLAND NELSON","description":"","address":"244 Hardy St, Nelson, 7010, New Zealand","latitude":"-41.274448228270835","longitude":"173.28549089462555","tags":"Atm","rating":"3","userID":"1","addedon":"2012-09-01"},{"id":271,"name":"THE NATIONAL BANK ATM NELSON BRANCH","description":"","address":"254 Trafalgar St, Nelson, 7010, New Zealand","latitude":"-41.273912628507887","longitude":"173.28375504929366","tags":"Atm","rating":"3","userID":"1","addedon":"2012-09-01"},{"id":272,"name":"KIWIBANK ATM THE WAREHOUSE NELSON","description":"","address":"7 St Vincent St, Nelson, 7010, New Zealand","latitude":"-41.271829836058949","longitude":"173.2782415357843","tags":"Atm","rating":"3","userID":"1","addedon":"2012-09-01"},{"id":273,"name":"KIWIBANK ATM NELSON POSTSHOP","description":"","address":"209 Hardy St, Nelson, 7010, New Zealand","latitude":"-41.274203397941633","longitude":"173.28473371607814","tags":"Atm","rating":"3","userID":"1","addedon":"2012-09-01"},{"id":274,"name":"WESTPAC ATM NELSON AIRPORT","description":"","address":"Nelson Airport (NSN), Trent Dr, Nelson Airport, Nelson 7011, New Zealand","latitude":"-41.299757080359861","longitude":"173.22496936095737","tags":"Atm","rating":"3","userID":"1","addedon":"2012-09-01"},{"id":275,"name":"WESTPAC ATM NELSON BRANCH","description":"","address":"168 Trafalgar St, Nelson, 7010, New Zealand","latitude":"-41.272395316935793","longitude":"173.2837925602096","tags":"Atm","rating":"3","userID":"1","addedon":"2012-09-01"},{"id":276,"name":"WESTPAC ATM STOKE BRANCH","description":"","address":"11 Putaitai St, Stoke, Nelson 7011, New Zealand","latitude":"-41.312139287516359","longitude":"173.23412498463725","tags":"Atm","rating":"3","userID":"1","addedon":"2012-09-01"},{"id":277,"name":"BNZ ATM NEW WORLD NELSON","description":"","address":"73 Vanguard St, Nelson, 7010, New Zealand","latitude":"-41.275514928042718","longitude":"173.27816957846571","tags":"Atm","rating":"3","userID":"1","addedon":"2012-09-01"},{"id":278,"name":"BNZ ATM NEW WORLD STOKE","description":"","address":"107 Neale Ave, Stoke, Nelson 7011, New Zealand","latitude":"-41.312612264797011","longitude":"173.23288218151842","tags":"Atm","rating":"3","userID":"1","addedon":"2012-09-01"},{"id":279,"name":"BNZ ATM SHELL RUTHERFORD","description":"","address":"106 Rutherford St, Nelson, 7010, New Zealand","latitude":"-41.274653686058883","longitude":"173.2805371491425","tags":"Atm","rating":"3","userID":"1","addedon":"2012-09-01"},{"id":280,"name":"KIWIBANK ATM MILLERS ACRE CENTRE NELSON","description":"","address":"75-81 Trafalgar St, Nelson, 7010, New Zealand","latitude":"-41.270527688723597","longitude":"173.28435326162514","tags":"Atm","rating":"3","userID":"1","addedon":"2012-09-01"},{"id":281,"name":"KIWIBANK ATM STOKE POSTSHOP","description":"","address":"27 Putaitai St, Stoke, Nelson 7011, New Zealand","latitude":"-41.311939350921918","longitude":"173.2337486355157","tags":"Atm","rating":"3","userID":"1","addedon":"2012-09-01"},{"id":282,"name":"Nelson Bus Station","description":"","address":"27 Bridge St, Nelson, 7010, New Zealand","latitude":"-41.272195051843362","longitude":"173.28234584734031","tags":"Bus Station","rating":"3","userID":"1","addedon":"2012-09-01"},{"id":283,"name":"Grampians Summit","description":"","address":"Grampian Rd, The Brook, Nelson 7010, New Zealand","latitude":"-41.298088353481582","longitude":"173.27971666264787","tags":"Walk, View","rating":"3","userID":"1","addedon":"2012-09-01"},{"id":284,"name":"Ronaki Track","description":"","address":"Grampians, Nelson South, Nelson 7010, New Zealand","latitude":"-41.28797477958782","longitude":"173.28391406616757","tags":"Walk","rating":"3","userID":"1","addedon":"2012-09-01"},{"id":285,"name":"Grampians Walkway","description":"","address":"Grampians, Nelson South, Nelson 7010, New Zealand","latitude":"-41.284881864133595","longitude":"173.28682567688827","tags":"Walk","rating":"3","userID":"1","addedon":"2012-09-01"},{"id":286,"name":"Demo Beach Walk","description":"Beach loop from the back beach ending at the playground","address":"Back Beach Road, Tahunanui, Demovile","latitude":"-41.285974","longitude":"173.23166","tags":"Walk, Beach, Playground","rating":"3","userID":"1","addedon":"2012-09-25"},{"id":287,"name":"Demo Valley Playground","description":"A great little playground that has become a family fav with a new play house and good swings","address":"Pioneer Park, Washington Valley, Demovile","latitude":"-41.272525","longitude":"173.275487","tags":"Playground, Swings","rating":"3","userID":"1","addedon":"2012-09-25"},{"id":288,"name":"Demo Model Train Ride","description":"A hit with the whole family are the great train rides at the modelers pond - they even have Thomas!","address":"Modelers pond, Tahunanui, Demovile","latitude":"-41.281806","longitude":"173.24388","tags":"Trains, Beach","rating":"5","userID":"1","addedon":"2012-09-25"},{"id":289,"name":"Demo Park","description":"A good size park with lots of trees to climb and heaps of room to play cricket or kick around a ball","address":"Back Beach Road, Tahunanui, Demovile","latitude":"-41.285974","longitude":"173.23166","tags":"Park, Field","rating":"3","userID":"1","addedon":"2012-09-25"},{"id":290,"name":"Demo Toilets","description":"Clean toilets with a change table for the little ones","address":"Pioneer Park, Washington Valley, Demovile","latitude":"-41.272525","longitude":"173.275487","tags":"Toilets, Change table","rating":"3","userID":"1","addedon":"2012-09-25"},{"id":291,"name":"Demo Park and Lake","description":"Big park with trees, lots of grass a small lake and plenty of wildlife","address":"Big Park, Tahunanui, Demovile","latitude":"-41.281806","longitude":"173.24388","tags":"Ducks, Lake, Park, Field","rating":"5","userID":"1","addedon":"2012-09-25"},{"id":292,"name":"Demo Forrest Walk","description":"Walk through native forrest - nice wide track that is flat and suited to buggy or kids on small bikes","address":"Back Beach Road, Tahunanui, Demovile","latitude":"-41.285974","longitude":"173.23166","tags":"Walk, Bush","rating":"3","userID":"1","addedon":"2012-09-25"},{"id":293,"name":"Demo Museum","description":"This Museum is great on a rainey day (or any day actually) with exhibits aimed at the kids and that are interactive to keep them entertained.","address":"Pioneer Park, Washington Valley, Demovile","latitude":"-41.272525","longitude":"173.275487","tags":"Rainy Day","rating":"3","userID":"1","addedon":"2012-09-25"},{"id":294,"name":"Demo Big Playground","description":"Playground that suits all ages (well under 10) with a seprate toddlers area. Swings, slides, climbing structures","address":"Big Park, Tahunanui, Demovile","latitude":"-41.281806","longitude":"173.24388","tags":"Playground, Swings, Slide","rating":"5","userID":"1","addedon":"2012-09-25"}]